{
  "width": 1651,
  "height": 2788,
  "anchors": [
    {
      "name": "Abisko",
      "lat": 68.358,
      "lon": 18.784,
      "x": 1134.4,
      "y": 153.3
    },
    {
      "name": "Abiskojaure",
      "lat": 68.286,
      "lon": 18.591,
      "x": 786.5,
      "y": 500.7
    },
    {
      "name": "Alesjaure",
      "lat": 68.137,
      "lon": 18.415,
      "x": 462.9,
      "y": 1243.2
    },
    {
      "name": "Tjäktja",
      "lat": 68.052,
      "lon": 18.241,
      "x": 151.7,
      "y": 1663.2
    },
    {
      "name": "Sälka",
      "lat": 67.946,
      "lon": 18.282,
      "x": 227.3,
      "y": 2168.9
    },
    {
      "name": "Kebnekaise",
      "lat": 67.868946,
      "lon": 18.620271,
      "x": 844.2,
      "y": 2532.5
    },
    {
      "name": "Nikkaluokta",
      "lat": 67.851359,
      "lon": 19.015424,
      "x": 1564.7,
      "y": 2592.9
    },
    {
      "name": "Singi",
      "lat": 67.851,
      "lon": 18.316,
      "x": 293.3,
      "y": 2607.2
    }
  ]
}